
---------------------------------------
        Volcano number =  0
-----------------------------------

Year =  -4360
Name =  Macauley Island
Type =  Caldera
Status =  Holocene

Location =  Kermadec Is
Country =  New Zealand
latitude =  -30.2
longitude =  -178.47

Tsunami status =  nan
Eartquake status =  nan

Time =  U


---------------------------------------
        Volcano number =  1
-----------------------------------

Year =  -4350
Name =  Kikai
Type =  Caldera
Status =  Historical

Location =  Ryukyu Is
Country =  Japan
latitude =  30.78
longitude =  130.28

Tsunami status =  nan
Eartquake status =  nan

Time =  D1


---------------------------------------
        Volcano number =  2
-----------------------------------

Year =  -4050
Name =  Masaya
Type =  Caldera
Status =  Historical

Location =  Nicaragua
Country =  Nicaragua
latitude =  11.984000000000002
longitude =  -86.161

Tsunami status =  nan
Eartquake status =  nan

Time =  D1


---------------------------------------
        Volcano number =  3
-----------------------------------

Year =  -4000
Name =  Pago
Type =  Caldera
Status =  Historical

Location =  New Britain-SW Pac
Country =  Papua New Guinea
latitude =  -5.58
longitude =  150.52

Tsunami status =  nan
Eartquake status =  nan

Time =  D2


---------------------------------------
        Volcano number =  4
-----------------------------------

Year =  -3580
Name =  Taal
Type =  Stratovolcano
Status =  Historical

Location =  Luzon-Philippines
Country =  Philippines
latitude =  14.002
longitude =  120.993

Tsunami status =  nan
Eartquake status =  nan

Time =  D1


---------------------------------------
        Volcano number =  5
-----------------------------------

Year =  -3550
Name =  Pinatubo
Type =  Stratovolcano
Status =  Historical

Location =  Luzon-Philippines
Country =  Philippines
latitude =  15.13
longitude =  120.35

Tsunami status =  nan
Eartquake status =  nan

Time =  D1


---------------------------------------
        Volcano number =  6
-----------------------------------

Year =  -2420
Name =  Vesuvius
Type =  Complex volcano
Status =  Historical

Location =  Italy
Country =  Italy
latitude =  40.821
longitude =  14.425999999999998

Tsunami status =  nan
Eartquake status =  nan

Time =  D2


---------------------------------------
        Volcano number =  7
-----------------------------------

Year =  -2040
Name =  Long Island
Type =  Complex volcano
Status =  Historical

Location =  New Guinea-NE of
Country =  Papua New Guinea
latitude =  -5.358
longitude =  147.12

Tsunami status =  nan
Eartquake status =  nan

Time =  D1


---------------------------------------
        Volcano number =  8
-----------------------------------

Year =  -1900
Name =  Black Peak
Type =  Stratovolcano
Status =  Radiocarbon

Location =  Alaska Peninsula
Country =  United States
latitude =  56.53
longitude =  -158.8

Tsunami status =  nan
Eartquake status =  nan

Time =  D7


---------------------------------------
        Volcano number =  9
-----------------------------------

Year =  -1890
Name =  Hudson, Cerro
Type =  Stratovolcano
Status =  Historical

Location =  Chile-S
Country =  Chile
latitude =  -45.9
longitude =  -72.97

Tsunami status =  nan
Eartquake status =  nan

Time =  D1


---------------------------------------
        Volcano number =  10
-----------------------------------

Year =  -1860
Name =  St. Helens
Type =  Stratovolcano
Status =  Historical

Location =  US-Washington
Country =  United States
latitude =  46.2
longitude =  -122.18

Tsunami status =  nan
Eartquake status =  nan

Time =  D1


---------------------------------------
        Volcano number =  11
-----------------------------------

Year =  -1750
Name =  Veniaminof
Type =  Stratovolcano
Status =  Historical

Location =  Alaska Peninsula
Country =  United States
latitude =  56.17
longitude =  -159.38

Tsunami status =  nan
Eartquake status =  nan

Time =  D1


---------------------------------------
        Volcano number =  12
-----------------------------------

Year =  -1645
Name =  Aniakchak
Type =  Caldera
Status =  Historical

Location =  Alaska Peninsula
Country =  United States
latitude =  56.88
longitude =  -158.17

Tsunami status =  nan
Eartquake status =  nan

Time =  D2


---------------------------------------
        Volcano number =  13
-----------------------------------

Year =  -1610
Name =  Santorini
Type =  Shield volcano
Status =  Historical

Location =  Greece
Country =  Greece
latitude =  36.404
longitude =  25.396

Tsunami status =  TSU
Eartquake status =  EQ

Time =  D2


---------------------------------------
        Volcano number =  14
-----------------------------------

Year =  -1550
Name =  Redoubt
Type =  Stratovolcano
Status =  Historical

Location =  Alaska-SW
Country =  United States
latitude =  60.48
longitude =  -152.75

Tsunami status =  TSU
Eartquake status =  nan

Time =  D1


---------------------------------------
        Volcano number =  15
-----------------------------------

Year =  -1460
Name =  Taupo
Type =  Caldera
Status =  Radiocarbon

Location =  New Zealand
Country =  New Zealand
latitude =  -38.82
longitude =  176.0

Tsunami status =  nan
Eartquake status =  nan

Time =  D6


---------------------------------------
        Volcano number =  16
-----------------------------------

Year =  -1370
Name =  Pago
Type =  Caldera
Status =  Historical

Location =  New Britain-SW Pac
Country =  Papua New Guinea
latitude =  -5.58
longitude =  150.52

Tsunami status =  nan
Eartquake status =  nan

Time =  D2


---------------------------------------
        Volcano number =  17
-----------------------------------

Year =  -1050
Name =  Pinatubo
Type =  Stratovolcano
Status =  Historical

Location =  Luzon-Philippines
Country =  Philippines
latitude =  15.13
longitude =  120.35

Tsunami status =  nan
Eartquake status =  nan

Time =  D1


---------------------------------------
        Volcano number =  18
-----------------------------------

Year =  -1010
Name =  Tungurahua
Type =  Stratovolcano
Status =  Historical

Location =  Ecuador
Country =  Ecuador
latitude =  -1.467
longitude =  -78.442

Tsunami status =  nan
Eartquake status =  nan

Time =  D1


---------------------------------------
        Volcano number =  19
-----------------------------------

Year =  -455
Name =  Cotopaxi
Type =  Stratovolcano
Status =  Historical

Location =  Ecuador
Country =  Ecuador
latitude =  -0.677
longitude =  -78.436

Tsunami status =  nan
Eartquake status =  nan

Time =  D2


---------------------------------------
        Volcano number =  20
-----------------------------------

Year =  -250
Name =  Raoul Island
Type =  Stratovolcano
Status =  Historical

Location =  Kermadec Is
Country =  New Zealand
latitude =  -29.27
longitude =  -177.92

Tsunami status =  nan
Eartquake status =  nan

Time =  D1


---------------------------------------
        Volcano number =  21
-----------------------------------

Year =  -197
Name =  Santorini
Type =  Shield volcano
Status =  Historical

Location =  Greece
Country =  Greece
latitude =  36.404
longitude =  25.396

Tsunami status =  TSU
Eartquake status =  nan

Time =  D2


---------------------------------------
        Volcano number =  22
-----------------------------------

Year =  -150
Name =  St. Andrew Strait
Type =  Complex volcano
Status =  Historical

Location =  Admiralty Is-SW Paci
Country =  Papua New Guinea
latitude =  -2.38
longitude =  147.35

Tsunami status =  nan
Eartquake status =  nan

Time =  D2


---------------------------------------
        Volcano number =  23
-----------------------------------

Year =  -141
Name =  Etna
Type =  Stratovolcano
Status =  Historical

Location =  Italy
Country =  Italy
latitude =  37.734
longitude =  15.004

Tsunami status =  nan
Eartquake status =  nan

Time =  D1


---------------------------------------
        Volcano number =  24
-----------------------------------

Year =  -100
Name =  Okmok
Type =  Shield volcano
Status =  Historical

Location =  Aleutian Is
Country =  United States
latitude =  53.42
longitude =  -168.13

Tsunami status =  nan
Eartquake status =  nan

Time =  D1


---------------------------------------
        Volcano number =  25
-----------------------------------

Year =  -50
Name =  Apoyeque
Type =  Pyroclastic shield
Status =  Radiocarbon

Location =  Nicaragua
Country =  Nicaragua
latitude =  12.242
longitude =  -86.34200000000001

Tsunami status =  nan
Eartquake status =  nan

Time =  D7


---------------------------------------
        Volcano number =  26
-----------------------------------

Year =  46
Name =  Santorini
Type =  Shield volcano
Status =  Historical

Location =  Greece
Country =  Greece
latitude =  36.404
longitude =  25.396

Tsunami status =  TSU
Eartquake status =  nan

Time =  D2


---------------------------------------
        Volcano number =  27
-----------------------------------

Year =  50
Name =  Ambrym
Type =  Pyroclastic shield
Status =  Historical

Location =  Vanuatu-SW Pacific
Country =  Vanuatu
latitude =  -16.25
longitude =  168.12

Tsunami status =  nan
Eartquake status =  nan

Time =  D1


---------------------------------------
        Volcano number =  28
-----------------------------------

Year =  60
Name =  Bona-Churchill
Type =  Stratovolcano
Status =  Radiocarbon

Location =  Alaska-E
Country =  United States
latitude =  61.38
longitude =  -141.75

Tsunami status =  nan
Eartquake status =  nan

Time =  D6


---------------------------------------
        Volcano number =  29
-----------------------------------

Year =  79
Name =  Vesuvius
Type =  Complex volcano
Status =  Historical

Location =  Italy
Country =  Italy
latitude =  40.821
longitude =  14.425999999999998

Tsunami status =  nan
Eartquake status =  nan

Time =  D2


---------------------------------------
        Volcano number =  30
-----------------------------------

Year =  200
Name =  Arhab, Harra of
Type =  Volcanic field
Status =  Historical

Location =  Arabia-S
Country =  Yemen
latitude =  15.63
longitude =  44.08

Tsunami status =  nan
Eartquake status =  nan

Time =  D6


---------------------------------------
        Volcano number =  31
-----------------------------------

Year =  230
Name =  Taupo
Type =  Caldera
Status =  Radiocarbon

Location =  New Zealand
Country =  New Zealand
latitude =  -38.82
longitude =  176.0

Tsunami status =  nan
Eartquake status =  nan

Time =  D6


---------------------------------------
        Volcano number =  32
-----------------------------------

Year =  240
Name =  Ksudach
Type =  Stratovolcano
Status =  Historical

Location =  Kamchatka
Country =  Russia
latitude =  51.8
longitude =  157.53

Tsunami status =  nan
Eartquake status =  nan

Time =  D2


---------------------------------------
        Volcano number =  33
-----------------------------------

Year =  350
Name =  Augustine
Type =  Lava dome
Status =  Historical

Location =  Alaska-SW
Country =  United States
latitude =  59.37
longitude =  -153.42

Tsunami status =  TSU
Eartquake status =  nan

Time =  D1


---------------------------------------
        Volcano number =  34
-----------------------------------

Year =  416
Name =  Krakatau
Type =  Caldera
Status =  Historical

Location =  Indonesia
Country =  Indonesia
latitude =  -6.102
longitude =  105.423

Tsunami status =  TSU
Eartquake status =  nan

Time =  D1


---------------------------------------
        Volcano number =  35
-----------------------------------

Year =  450
Name =  Ilopango
Type =  Caldera
Status =  Historical

Location =  El Salvador
Country =  El Salvador
latitude =  13.672
longitude =  -89.053

Tsunami status =  nan
Eartquake status =  nan

Time =  D3


---------------------------------------
        Volcano number =  36
-----------------------------------

Year =  500
Name =  Arhab, Harra of
Type =  Volcanic field
Status =  Historical

Location =  Arabia-S
Country =  Yemen
latitude =  15.63
longitude =  44.08

Tsunami status =  nan
Eartquake status =  nan

Time =  D6


---------------------------------------
        Volcano number =  37
-----------------------------------

Year =  590
Name =  San Salvador
Type =  Stratovolcano
Status =  Historical

Location =  El Salvador
Country =  El Salvador
latitude =  13.736
longitude =  -89.286

Tsunami status =  nan
Eartquake status =  nan

Time =  D2


---------------------------------------
        Volcano number =  38
-----------------------------------

Year =  640
Name =  Uwayrid, Harrat
Type =  Volcanic field
Status =  Anthropology

Location =  Arabia-W
Country =  Saudi Arabia
latitude =  27.08
longitude =  37.25

Tsunami status =  nan
Eartquake status =  nan

Time =  D6


---------------------------------------
        Volcano number =  39
-----------------------------------

Year =  653
Name =  Dakataua
Type =  Caldera
Status =  Anthropology

Location =  New Britain-SW Pac
Country =  Papua New Guinea
latitude =  -5.056
longitude =  150.108

Tsunami status =  nan
Eartquake status =  nan

Time =  D3


---------------------------------------
        Volcano number =  40
-----------------------------------

Year =  683
Name =  Rabaul
Type =  Pyroclastic shield
Status =  Historical

Location =  New Britain-SW Pac
Country =  Papua New Guinea
latitude =  -4.271
longitude =  152.203

Tsunami status =  nan
Eartquake status =  nan

Time =  D1


---------------------------------------
        Volcano number =  41
-----------------------------------

Year =  710
Name =  Pago
Type =  Caldera
Status =  Historical

Location =  New Britain-SW Pac
Country =  Papua New Guinea
latitude =  -5.58
longitude =  150.52

Tsunami status =  nan
Eartquake status =  nan

Time =  D2


---------------------------------------
        Volcano number =  42
-----------------------------------

Year =  764
Name =  Sakura-jima
Type =  Stratovolcano
Status =  Historical

Location =  Kyushu-Japan
Country =  Japan
latitude =  31.58
longitude =  130.67

Tsunami status =  nan
Eartquake status =  nan

Time =  D1


---------------------------------------
        Volcano number =  43
-----------------------------------

Year =  766
Name =  Sakura-jima
Type =  Stratovolcano
Status =  Historical

Location =  Kyushu-Japan
Country =  Japan
latitude =  31.58
longitude =  130.67

Tsunami status =  TSU
Eartquake status =  EQ

Time =  D1


---------------------------------------
        Volcano number =  44
-----------------------------------

Year =  787
Name =  Vesuvius
Type =  Complex volcano
Status =  Historical

Location =  Italy
Country =  Italy
latitude =  40.821
longitude =  14.425999999999998

Tsunami status =  nan
Eartquake status =  nan

Time =  D2


---------------------------------------
        Volcano number =  45
-----------------------------------

Year =  847
Name =  Bona-Churchill
Type =  Stratovolcano
Status =  Radiocarbon

Location =  Alaska-E
Country =  United States
latitude =  61.38
longitude =  -141.75

Tsunami status =  nan
Eartquake status =  nan

Time =  D6


---------------------------------------
        Volcano number =  46
-----------------------------------

Year =  920
Name =  Katla
Type =  Subglacial volcano
Status =  Historical

Location =  Iceland-S
Country =  Iceland
latitude =  63.63
longitude =  -19.05

Tsunami status =  nan
Eartquake status =  nan

Time =  D2


---------------------------------------
        Volcano number =  47
-----------------------------------

Year =  930
Name =  Ceboruco
Type =  Stratovolcano
Status =  Historical

Location =  Mexico
Country =  Mexico
latitude =  21.125
longitude =  -104.508

Tsunami status =  nan
Eartquake status =  nan

Time =  D3


---------------------------------------
        Volcano number =  48
-----------------------------------

Year =  934
Name =  Katla
Type =  Subglacial volcano
Status =  Historical

Location =  Iceland-S
Country =  Iceland
latitude =  63.63
longitude =  -19.05

Tsunami status =  nan
Eartquake status =  nan

Time =  D2


---------------------------------------
        Volcano number =  49
-----------------------------------

Year =  950
Name =  Katla
Type =  Subglacial volcano
Status =  Historical

Location =  Iceland-S
Country =  Iceland
latitude =  63.63
longitude =  -19.05

Tsunami status =  nan
Eartquake status =  nan

Time =  D2


---------------------------------------
        Volcano number =  50
-----------------------------------

Year =  1000
Name =  Changbaishan
Type =  Stratovolcano
Status =  Historical

Location =  China-E
Country =  North Korea
latitude =  41.98
longitude =  128.08

Tsunami status =  nan
Eartquake status =  nan

Time =  D4


---------------------------------------
        Volcano number =  51
-----------------------------------

Year =  1050
Name =  Santorini
Type =  Shield volcano
Status =  Historical

Location =  Greece
Country =  Greece
latitude =  36.404
longitude =  25.396

Tsunami status =  TSU
Eartquake status =  nan

Time =  D2


---------------------------------------
        Volcano number =  52
-----------------------------------

Year =  1104
Name =  Hekla
Type =  Stratovolcano
Status =  Historical

Location =  Iceland-S
Country =  Iceland
latitude =  63.98
longitude =  -19.7

Tsunami status =  nan
Eartquake status =  nan

Time =  D1


---------------------------------------
        Volcano number =  53
-----------------------------------

Year =  1151
Name =  Krisuvik
Type =  Crater rows
Status =  Historical

Location =  Iceland-SW
Country =  Iceland
latitude =  63.93
longitude =  -22.1

Tsunami status =  nan
Eartquake status =  nan

Time =  D6


---------------------------------------
        Volcano number =  54
-----------------------------------

Year =  1158
Name =  Hekla
Type =  Stratovolcano
Status =  Historical

Location =  Iceland-S
Country =  Iceland
latitude =  63.98
longitude =  -19.7

Tsunami status =  nan
Eartquake status =  nan

Time =  D1


---------------------------------------
        Volcano number =  55
-----------------------------------

Year =  1169
Name =  Etna
Type =  Stratovolcano
Status =  Historical

Location =  Italy
Country =  Italy
latitude =  37.734
longitude =  15.004

Tsunami status =  TSU
Eartquake status =  EQ

Time =  D1


---------------------------------------
        Volcano number =  56
-----------------------------------

Year =  1169
Name =  Etna
Type =  Stratovolcano
Status =  Historical

Location =  Italy
Country =  Italy
latitude =  37.734
longitude =  15.004

Tsunami status =  TSU
Eartquake status =  nan

Time =  D1


---------------------------------------
        Volcano number =  57
-----------------------------------

Year =  1177
Name =  Katla
Type =  Subglacial volcano
Status =  Historical

Location =  Iceland-S
Country =  Iceland
latitude =  63.63
longitude =  -19.05

Tsunami status =  nan
Eartquake status =  nan

Time =  D2


---------------------------------------
        Volcano number =  58
-----------------------------------

Year =  1206
Name =  Hekla
Type =  Stratovolcano
Status =  Historical

Location =  Iceland-S
Country =  Iceland
latitude =  63.98
longitude =  -19.7

Tsunami status =  nan
Eartquake status =  nan

Time =  D1


---------------------------------------
        Volcano number =  59
-----------------------------------

Year =  1250
Name =  Fentale
Type =  Stratovolcano
Status =  Historical

Location =  Africa-NE
Country =  Ethiopia
latitude =  8.975
longitude =  39.93

Tsunami status =  nan
Eartquake status =  nan

Time =  D3


---------------------------------------
        Volcano number =  60
-----------------------------------

Year =  1262
Name =  Katla
Type =  Subglacial volcano
Status =  Historical

Location =  Iceland-S
Country =  Iceland
latitude =  63.63
longitude =  -19.05

Tsunami status =  nan
Eartquake status =  nan

Time =  D2


---------------------------------------
        Volcano number =  61
-----------------------------------

Year =  1280
Name =  Quilotoa
Type =  Caldera
Status =  Radiocarbon

Location =  Ecuador
Country =  Ecuador
latitude =  -0.85
longitude =  -78.9

Tsunami status =  nan
Eartquake status =  nan

Time =  D6


---------------------------------------
        Volcano number =  62
-----------------------------------

Year =  1300
Name =  Hekla
Type =  Stratovolcano
Status =  Historical

Location =  Iceland-S
Country =  Iceland
latitude =  63.98
longitude =  -19.7

Tsunami status =  nan
Eartquake status =  nan

Time =  D1


---------------------------------------
        Volcano number =  63
-----------------------------------

Year =  1302
Name =  Ischia
Type =  Complex volcano
Status =  Historical

Location =  Italy
Country =  Italy
latitude =  40.73
longitude =  13.897

Tsunami status =  nan
Eartquake status =  nan

Time =  D6


---------------------------------------
        Volcano number =  64
-----------------------------------

Year =  1311
Name =  Katla
Type =  Subglacial volcano
Status =  Historical

Location =  Iceland-S
Country =  Iceland
latitude =  63.63
longitude =  -19.05

Tsunami status =  nan
Eartquake status =  nan

Time =  D2


---------------------------------------
        Volcano number =  65
-----------------------------------

Year =  1311
Name =  Kelut
Type =  Stratovolcano
Status =  Historical

Location =  Java
Country =  Indonesia
latitude =  -7.93
longitude =  112.308

Tsunami status =  nan
Eartquake status =  nan

Time =  D1


---------------------------------------
        Volcano number =  66
-----------------------------------

Year =  1329
Name =  Etna
Type =  Stratovolcano
Status =  Historical

Location =  Italy
Country =  Italy
latitude =  37.734
longitude =  15.004

Tsunami status =  TSU
Eartquake status =  nan

Time =  D1


---------------------------------------
        Volcano number =  67
-----------------------------------

Year =  1329
Name =  Etna
Type =  Stratovolcano
Status =  Historical

Location =  Italy
Country =  Italy
latitude =  37.734
longitude =  15.004

Tsunami status =  nan
Eartquake status =  nan

Time =  D1


---------------------------------------
        Volcano number =  68
-----------------------------------

Year =  1331
Name =  Aso
Type =  Caldera
Status =  Historical

Location =  Kyushu-Japan
Country =  Japan
latitude =  32.88
longitude =  131.1

Tsunami status =  nan
Eartquake status =  nan

Time =  D1


---------------------------------------
        Volcano number =  69
-----------------------------------

Year =  1334
Name =  Kelut
Type =  Stratovolcano
Status =  Historical

Location =  Java
Country =  Indonesia
latitude =  -7.93
longitude =  112.308

Tsunami status =  nan
Eartquake status =  nan

Time =  D1


---------------------------------------
        Volcano number =  70
-----------------------------------

Year =  1341
Name =  Hekla
Type =  Stratovolcano
Status =  Historical

Location =  Iceland-S
Country =  Iceland
latitude =  63.98
longitude =  -19.7

Tsunami status =  nan
Eartquake status =  nan

Time =  D1


---------------------------------------
        Volcano number =  71
-----------------------------------

Year =  1357
Name =  Katla
Type =  Subglacial volcano
Status =  Historical

Location =  Iceland-S
Country =  Iceland
latitude =  63.63
longitude =  -19.05

Tsunami status =  nan
Eartquake status =  nan

Time =  D2


---------------------------------------
        Volcano number =  72
-----------------------------------

Year =  1362
Name =  Oraefajokull
Type =  Stratovolcano
Status =  Historical

Location =  Iceland-SE
Country =  Iceland
latitude =  64.0
longitude =  -16.65

Tsunami status =  nan
Eartquake status =  nan

Time =  D4


---------------------------------------
        Volcano number =  73
-----------------------------------

Year =  1375
Name =  Chichon, El
Type =  Tuff cone
Status =  Historical

Location =  Mexico
Country =  Mexico
latitude =  17.36
longitude =  -93.228

Tsunami status =  nan
Eartquake status =  nan

Time =  D1


---------------------------------------
        Volcano number =  74
-----------------------------------

Year =  1376
Name =  Kelut
Type =  Stratovolcano
Status =  Historical

Location =  Java
Country =  Indonesia
latitude =  -7.93
longitude =  112.308

Tsunami status =  nan
Eartquake status =  nan

Time =  D1


---------------------------------------
        Volcano number =  75
-----------------------------------

Year =  1385
Name =  Kelut
Type =  Stratovolcano
Status =  Historical

Location =  Java
Country =  Indonesia
latitude =  -7.93
longitude =  112.308

Tsunami status =  nan
Eartquake status =  nan

Time =  D1


---------------------------------------
        Volcano number =  76
-----------------------------------

Year =  1389
Name =  Hekla
Type =  Stratovolcano
Status =  Historical

Location =  Iceland-S
Country =  Iceland
latitude =  63.98
longitude =  -19.7

Tsunami status =  nan
Eartquake status =  nan

Time =  D1


---------------------------------------
        Volcano number =  77
-----------------------------------

Year =  1410
Name =  Nasu
Type =  Stratovolcano
Status =  Historical

Location =  Honshu-Japan
Country =  Japan
latitude =  37.12
longitude =  139.97

Tsunami status =  nan
Eartquake status =  nan

Time =  D2


---------------------------------------
        Volcano number =  78
-----------------------------------

Year =  1430
Name =  Kuwae
Type =  Caldera
Status =  Historical

Location =  Vanuatu-SW Pacific
Country =  Vanuatu
latitude =  -16.829
longitude =  168.53599999999997

Tsunami status =  nan
Eartquake status =  nan

Time =  D1


---------------------------------------
        Volcano number =  79
-----------------------------------

Year =  1471
Name =  Sakura-jima
Type =  Stratovolcano
Status =  Historical

Location =  Kyushu-Japan
Country =  Japan
latitude =  31.58
longitude =  130.67

Tsunami status =  nan
Eartquake status =  nan

Time =  D1


---------------------------------------
        Volcano number =  80
-----------------------------------

Year =  1477
Name =  Bardarbunga
Type =  Stratovolcano
Status =  Historical

Location =  Iceland-NE
Country =  Iceland
latitude =  64.63
longitude =  -17.53

Tsunami status =  nan
Eartquake status =  nan

Time =  D2


---------------------------------------
        Volcano number =  81
-----------------------------------

Year =  1485
Name =  Aso
Type =  Caldera
Status =  Historical

Location =  Kyushu-Japan
Country =  Japan
latitude =  32.88
longitude =  131.1

Tsunami status =  nan
Eartquake status =  nan

Time =  D1


---------------------------------------
        Volcano number =  82
-----------------------------------

Year =  1500
Name =  Katla
Type =  Subglacial volcano
Status =  Historical

Location =  Iceland-S
Country =  Iceland
latitude =  63.63
longitude =  -19.05

Tsunami status =  nan
Eartquake status =  nan

Time =  D2


---------------------------------------
        Volcano number =  83
-----------------------------------

Year =  1510
Name =  Hekla
Type =  Stratovolcano
Status =  Historical

Location =  Iceland-S
Country =  Iceland
latitude =  63.98
longitude =  -19.7

Tsunami status =  nan
Eartquake status =  nan

Time =  D1


---------------------------------------
        Volcano number =  84
-----------------------------------

Year =  1510
Name =  Hekla
Type =  Stratovolcano
Status =  Historical

Location =  Iceland-S
Country =  Iceland
latitude =  63.98
longitude =  -19.7

Tsunami status =  nan
Eartquake status =  nan

Time =  D1


---------------------------------------
        Volcano number =  85
-----------------------------------

Year =  1536
Name =  Etna
Type =  Stratovolcano
Status =  Historical

Location =  Italy
Country =  Italy
latitude =  37.734
longitude =  15.004

Tsunami status =  nan
Eartquake status =  nan

Time =  D1


---------------------------------------
        Volcano number =  86
-----------------------------------

Year =  1538
Name =  Campi Flegrei
Type =  Caldera
Status =  Historical

Location =  Italy
Country =  Italy
latitude =  40.827
longitude =  14.139

Tsunami status =  nan
Eartquake status =  nan

Time =  D5


---------------------------------------
        Volcano number =  87
-----------------------------------

Year =  1540
Name =  Augustine
Type =  Lava dome
Status =  Historical

Location =  Alaska-SW
Country =  United States
latitude =  59.37
longitude =  -153.42

Tsunami status =  TSU
Eartquake status =  nan

Time =  D1


---------------------------------------
        Volcano number =  88
-----------------------------------

Year =  1550
Name =  Dukono
Type =  Complex volcano
Status =  Historical

Location =  Halmahera-Indonesia
Country =  Indonesia
latitude =  1.68
longitude =  127.88

Tsunami status =  nan
Eartquake status =  nan

Time =  D1


---------------------------------------
        Volcano number =  89
-----------------------------------

Year =  1564
Name =  Gamkonora
Type =  Stratovolcano
Status =  Historical

Location =  Halmahera-Indonesia
Country =  Indonesia
latitude =  1.375
longitude =  127.52

Tsunami status =  nan
Eartquake status =  nan

Time =  D1


---------------------------------------
        Volcano number =  90
-----------------------------------

Year =  1565
Name =  Pacaya
Type =  Complex volcano
Status =  Historical

Location =  Guatemala
Country =  Guatemala
latitude =  14.380999999999998
longitude =  -90.601

Tsunami status =  nan
Eartquake status =  EQ

Time =  D1


---------------------------------------
        Volcano number =  91
-----------------------------------

Year =  1566
Name =  Kirishima
Type =  Shield volcano
Status =  Historical

Location =  Kyushu-Japan
Country =  Japan
latitude =  31.93
longitude =  130.87

Tsunami status =  nan
Eartquake status =  nan

Time =  D1


---------------------------------------
        Volcano number =  92
-----------------------------------

Year =  1568
Name =  Savo
Type =  Stratovolcano
Status =  Historical

Location =  Solomon Is-SW Pacifi
Country =  Solomon Is.
latitude =  -9.13
longitude =  159.82

Tsunami status =  nan
Eartquake status =  nan

Time =  D3


---------------------------------------
        Volcano number =  93
-----------------------------------

Year =  1570
Name =  Mombacho
Type =  Stratovolcano
Status =  Holocene

Location =  Nicaragua
Country =  Nicaragua
latitude =  11.826
longitude =  -85.96799999999998

Tsunami status =  nan
Eartquake status =  nan

Time =  U


---------------------------------------
        Volcano number =  94
-----------------------------------

Year =  1576
Name =  Colima
Type =  Stratovolcano
Status =  Historical

Location =  Mexico
Country =  Mexico
latitude =  19.514
longitude =  -103.62

Tsunami status =  nan
Eartquake status =  nan

Time =  D1


---------------------------------------
        Volcano number =  95
-----------------------------------

Year =  1580
Name =  San Jorge
Type =  Fissure vent
Status =  Historical

Location =  Azores
Country =  Portugal
latitude =  38.65
longitude =  -28.08

Tsunami status =  nan
Eartquake status =  nan

Time =  D2


---------------------------------------
        Volcano number =  96
-----------------------------------

Year =  1580
Name =  Katla
Type =  Subglacial volcano
Status =  Historical

Location =  Iceland-S
Country =  Iceland
latitude =  63.63
longitude =  -19.05

Tsunami status =  nan
Eartquake status =  nan

Time =  D2


---------------------------------------
        Volcano number =  97
-----------------------------------

Year =  1580
Name =  Billy Mitchell
Type =  Pyroclastic shield
Status =  Radiocarbon

Location =  Bougainville-SW Paci
Country =  Papua New Guinea
latitude =  -6.0920000000000005
longitude =  155.225

Tsunami status =  nan
Eartquake status =  nan

Time =  D5


---------------------------------------
        Volcano number =  98
-----------------------------------

Year =  1581
Name =  Fuego
Type =  Stratovolcano
Status =  Historical

Location =  Guatemala
Country =  Guatemala
latitude =  14.473
longitude =  -90.88

Tsunami status =  nan
Eartquake status =  nan

Time =  D1


---------------------------------------
        Volcano number =  99
-----------------------------------

Year =  1586
Name =  Kelut
Type =  Stratovolcano
Status =  Historical

Location =  Java
Country =  Indonesia
latitude =  -7.93
longitude =  112.308

Tsunami status =  nan
Eartquake status =  nan

Time =  D1


---------------------------------------
        Volcano number =  100
-----------------------------------

Year =  1587
Name =  Merapi
Type =  Stratovolcano
Status =  Historical

Location =  Java
Country =  Indonesia
latitude =  -7.542000000000002
longitude =  110.442

Tsunami status =  nan
Eartquake status =  nan

Time =  D1


---------------------------------------
        Volcano number =  101
-----------------------------------

Year =  1590
Name =  Colima
Type =  Stratovolcano
Status =  Historical

Location =  Mexico
Country =  Mexico
latitude =  19.514
longitude =  -103.62

Tsunami status =  nan
Eartquake status =  nan

Time =  D1


---------------------------------------
        Volcano number =  102
-----------------------------------

Year =  1593
Name =  Raung
Type =  Stratovolcano
Status =  Historical

Location =  Java
Country =  Indonesia
latitude =  -8.125
longitude =  114.042

Tsunami status =  nan
Eartquake status =  nan

Time =  D1


---------------------------------------
        Volcano number =  103
-----------------------------------

Year =  1595
Name =  Ruiz
Type =  Stratovolcano
Status =  Historical

Location =  Colombia
Country =  Colombia
latitude =  4.895
longitude =  -75.322

Tsunami status =  nan
Eartquake status =  nan

Time =  D1


---------------------------------------
        Volcano number =  104
-----------------------------------

Year =  1596
Name =  Asama
Type =  Complex volcano
Status =  Historical

Location =  Honshu-Japan
Country =  Japan
latitude =  36.4
longitude =  138.53

Tsunami status =  nan
Eartquake status =  nan

Time =  D1


---------------------------------------
        Volcano number =  105
-----------------------------------

Year =  1597
Name =  Hekla
Type =  Stratovolcano
Status =  Historical

Location =  Iceland-S
Country =  Iceland
latitude =  63.98
longitude =  -19.7

Tsunami status =  nan
Eartquake status =  nan

Time =  D1


---------------------------------------
        Volcano number =  106
-----------------------------------

Year =  1597
Name =  Raung
Type =  Stratovolcano
Status =  Historical

Location =  Java
Country =  Indonesia
latitude =  -8.125
longitude =  114.042

Tsunami status =  nan
Eartquake status =  nan

Time =  D1


---------------------------------------
        Volcano number =  107
-----------------------------------

Year =  1598
Name =  Asama
Type =  Complex volcano
Status =  Historical

Location =  Honshu-Japan
Country =  Japan
latitude =  36.4
longitude =  138.53

Tsunami status =  nan
Eartquake status =  nan

Time =  D1


---------------------------------------
        Volcano number =  108
-----------------------------------

Year =  1598
Name =  Banda Api
Type =  Caldera
Status =  Historical

Location =  Banda Sea
Country =  Pacific Ocean
latitude =  -4.525
longitude =  129.871

Tsunami status =  nan
Eartquake status =  nan

Time =  D1


---------------------------------------
        Volcano number =  109
-----------------------------------

Year =  1600
Name =  Huaynaputina
Type =  Stratovolcano
Status =  Historical

Location =  Peru
Country =  Peru
latitude =  -16.608
longitude =  -70.85

Tsunami status =  nan
Eartquake status =  EQ

Time =  D5


---------------------------------------
        Volcano number =  110
-----------------------------------

Year =  1606
Name =  Hachijo-jima
Type =  Stratovolcano
Status =  Historical

Location =  Izu Is-Japan
Country =  Japan
latitude =  33.13
longitude =  139.77

Tsunami status =  TSU
Eartquake status =  nan

Time =  D5


---------------------------------------
        Volcano number =  111
-----------------------------------

Year =  1608
Name =  Gamalama
Type =  Stratovolcano
Status =  Historical

Location =  Halmahera-Indonesia
Country =  Indonesia
latitude =  0.8
longitude =  127.325

Tsunami status =  TSU
Eartquake status =  nan

Time =  D1


---------------------------------------
        Volcano number =  112
-----------------------------------

Year =  1609
Name =  Tengchong
Type =  Pyroclastic cone
Status =  Historical

Location =  China-S
Country =  China
latitude =  25.32
longitude =  98.47

Tsunami status =  nan
Eartquake status =  nan

Time =  D5


---------------------------------------
        Volcano number =  113
-----------------------------------

Year =  1615
Name =  Banda Api
Type =  Caldera
Status =  Historical

Location =  Banda Sea
Country =  Pacific Ocean
latitude =  -4.525
longitude =  129.871

Tsunami status =  nan
Eartquake status =  nan

Time =  D1


---------------------------------------
        Volcano number =  114
-----------------------------------

Year =  1617
Name =  Fuego
Type =  Stratovolcano
Status =  Historical

Location =  Guatemala
Country =  Guatemala
latitude =  14.473
longitude =  -90.88

Tsunami status =  nan
Eartquake status =  nan

Time =  D1


---------------------------------------
        Volcano number =  115
-----------------------------------

Year =  1625
Name =  Katla
Type =  Subglacial volcano
Status =  Historical

Location =  Iceland-S
Country =  Iceland
latitude =  63.63
longitude =  -19.05

Tsunami status =  nan
Eartquake status =  nan

Time =  D2


---------------------------------------
        Volcano number =  116
-----------------------------------

Year =  1629
Name =  Grimsvotn
Type =  Caldera
Status =  Historical

Location =  Iceland-NE
Country =  Iceland
latitude =  64.42
longitude =  -17.33

Tsunami status =  nan
Eartquake status =  nan

Time =  D1


---------------------------------------
        Volcano number =  117
-----------------------------------

Year =  1630
Name =  Furnas
Type =  Stratovolcano
Status =  Historical

Location =  Azores
Country =  Portugal
latitude =  37.77
longitude =  -25.32

Tsunami status =  nan
Eartquake status =  nan

Time =  D5


---------------------------------------
        Volcano number =  118
-----------------------------------

Year =  1631
Name =  Dama Ali
Type =  Shield volcano
Status =  Historical

Location =  Africa-NE
Country =  Ethiopia
latitude =  11.28
longitude =  41.63

Tsunami status =  nan
Eartquake status =  EQ

Time =  D5


---------------------------------------
        Volcano number =  119
-----------------------------------

Year =  1631
Name =  Vesuvius
Type =  Complex volcano
Status =  Historical

Location =  Italy
Country =  Italy
latitude =  40.821
longitude =  14.425999999999998

Tsunami status =  TSU
Eartquake status =  EQ

Time =  D2


---------------------------------------
        Volcano number =  120
-----------------------------------

Year =  1636
Name =  Hekla
Type =  Stratovolcano
Status =  Historical

Location =  Iceland-S
Country =  Iceland
latitude =  63.98
longitude =  -19.7

Tsunami status =  nan
Eartquake status =  nan

Time =  D1


---------------------------------------
        Volcano number =  121
-----------------------------------

Year =  1638
Name =  Raung
Type =  Stratovolcano
Status =  Historical

Location =  Java
Country =  Indonesia
latitude =  -8.125
longitude =  114.042

Tsunami status =  nan
Eartquake status =  nan

Time =  D1


---------------------------------------
        Volcano number =  122
-----------------------------------

Year =  1640
Name =  Komaga-take
Type =  Stratovolcano
Status =  Historical

Location =  Hokkaido-Japan
Country =  Japan
latitude =  42.07
longitude =  140.68

Tsunami status =  TSU
Eartquake status =  EQ

Time =  D1


---------------------------------------
        Volcano number =  123
-----------------------------------

Year =  1640
Name =  Tungurahua
Type =  Stratovolcano
Status =  Historical

Location =  Ecuador
Country =  Ecuador
latitude =  -1.467
longitude =  -78.442

Tsunami status =  nan
Eartquake status =  nan

Time =  D1


---------------------------------------
        Volcano number =  124
-----------------------------------

Year =  1646
Name =  Makian
Type =  Stratovolcano
Status =  Historical

Location =  Halmahera-Indonesia
Country =  Indonesia
latitude =  0.32
longitude =  127.4

Tsunami status =  nan
Eartquake status =  nan

Time =  D1


---------------------------------------
        Volcano number =  125
-----------------------------------

Year =  1650
Name =  Santorini
Type =  Shield volcano
Status =  Historical

Location =  Greece
Country =  Greece
latitude =  36.404
longitude =  25.396

Tsunami status =  TSU
Eartquake status =  nan

Time =  D2


---------------------------------------
        Volcano number =  126
-----------------------------------

Year =  1659
Name =  San Salvador
Type =  Stratovolcano
Status =  Historical

Location =  El Salvador
Country =  El Salvador
latitude =  13.736
longitude =  -89.286

Tsunami status =  nan
Eartquake status =  EQ

Time =  D2


---------------------------------------
        Volcano number =  127
-----------------------------------

Year =  1659
Name =  Teon
Type =  Stratovolcano
Status =  Historical

Location =  Banda Sea
Country =  Pacific Ocean
latitude =  -6.92
longitude =  129.125

Tsunami status =  TSU
Eartquake status =  nan

Time =  D2


---------------------------------------
        Volcano number =  128
-----------------------------------

Year =  1660
Name =  Teon
Type =  Stratovolcano
Status =  Historical

Location =  Banda Sea
Country =  Pacific Ocean
latitude =  -6.92
longitude =  129.125

Tsunami status =  nan
Eartquake status =  nan

Time =  D2


---------------------------------------
        Volcano number =  129
-----------------------------------

Year =  1660
Name =  Katla
Type =  Subglacial volcano
Status =  Historical

Location =  Iceland-S
Country =  Iceland
latitude =  63.63
longitude =  -19.05

Tsunami status =  nan
Eartquake status =  nan

Time =  D2


---------------------------------------
        Volcano number =  130
-----------------------------------

Year =  1660
Name =  Long Island
Type =  Complex volcano
Status =  Historical

Location =  New Guinea-NE of
Country =  Papua New Guinea
latitude =  -5.358
longitude =  147.12

Tsunami status =  TSU
Eartquake status =  nan

Time =  D1


---------------------------------------
        Volcano number =  131
-----------------------------------

Year =  1663
Name =  Usu
Type =  Stratovolcano
Status =  Historical

Location =  Hokkaido-Japan
Country =  Japan
latitude =  42.53
longitude =  140.83

Tsunami status =  nan
Eartquake status =  nan

Time =  D1


---------------------------------------
        Volcano number =  132
-----------------------------------

Year =  1664
Name =  Unzen
Type =  Complex volcano
Status =  Historical

Location =  Kyushu-Japan
Country =  Japan
latitude =  32.75
longitude =  130.3

Tsunami status =  nan
Eartquake status =  nan

Time =  D1


---------------------------------------
        Volcano number =  133
-----------------------------------

Year =  1664
Name =  Iwo-Tori-shima
Type =  Complex volcano
Status =  Historical

Location =  Ryukyu Is
Country =  Japan
latitude =  27.85
longitude =  128.25

Tsunami status =  TSU
Eartquake status =  nan

Time =  D1


---------------------------------------
        Volcano number =  134
-----------------------------------

Year =  1669
Name =  Etna
Type =  Stratovolcano
Status =  Historical

Location =  Italy
Country =  Italy
latitude =  37.734
longitude =  15.004

Tsunami status =  nan
Eartquake status =  EQ

Time =  D1


---------------------------------------
        Volcano number =  135
-----------------------------------

Year =  1669
Name =  Etna
Type =  Stratovolcano
Status =  Historical

Location =  Italy
Country =  Italy
latitude =  37.734
longitude =  15.004

Tsunami status =  nan
Eartquake status =  nan

Time =  D1


---------------------------------------
        Volcano number =  136
-----------------------------------

Year =  1670
Name =  Aoba
Type =  Shield volcano
Status =  Historical

Location =  Vanuatu-SW Pacific
Country =  Vanuatu
latitude =  -15.4
longitude =  167.83

Tsunami status =  nan
Eartquake status =  nan

Time =  D1


---------------------------------------
        Volcano number =  137
-----------------------------------

Year =  1672
Name =  Fayal
Type =  Stratovolcano
Status =  Historical

Location =  Azores
Country =  Portugal
latitude =  38.6
longitude =  -28.73

Tsunami status =  nan
Eartquake status =  nan

Time =  D2


---------------------------------------
        Volcano number =  138
-----------------------------------

Year =  1672
Name =  Merapi
Type =  Stratovolcano
Status =  Historical

Location =  Java
Country =  Indonesia
latitude =  -7.542000000000002
longitude =  110.442

Tsunami status =  nan
Eartquake status =  nan

Time =  D1


---------------------------------------
        Volcano number =  139
-----------------------------------

Year =  1673
Name =  Gamkonora
Type =  Stratovolcano
Status =  Historical

Location =  Halmahera-Indonesia
Country =  Indonesia
latitude =  1.375
longitude =  127.52

Tsunami status =  TSU
Eartquake status =  nan

Time =  D1


---------------------------------------
        Volcano number =  140
-----------------------------------

Year =  1677
Name =  La Palma
Type =  Stratovolcano
Status =  Historical

Location =  Canary Is
Country =  Spain
latitude =  28.58
longitude =  -17.83

Tsunami status =  nan
Eartquake status =  nan

Time =  D1


---------------------------------------
        Volcano number =  141
-----------------------------------

Year =  1679
Name =  Zukur
Type =  Shield volcano
Status =  Holocene

Location =  Red Sea
Country =  Yemen
latitude =  14.02
longitude =  42.75

Tsunami status =  nan
Eartquake status =  EQ

Time =  U


---------------------------------------
        Volcano number =  142
-----------------------------------

Year =  1682
Name =  Vesuvius
Type =  Complex volcano
Status =  Historical

Location =  Italy
Country =  Italy
latitude =  40.821
longitude =  14.425999999999998

Tsunami status =  nan
Eartquake status =  nan

Time =  D2


---------------------------------------
        Volcano number =  143
-----------------------------------

Year =  1684
Name =  Grimsvotn
Type =  Caldera
Status =  Historical

Location =  Iceland-NE
Country =  Iceland
latitude =  64.42
longitude =  -17.33

Tsunami status =  nan
Eartquake status =  nan

Time =  D1


---------------------------------------
        Volcano number =  144
-----------------------------------

Year =  1690
Name =  Vesuvius
Type =  Complex volcano
Status =  Historical

Location =  Italy
Country =  Italy
latitude =  40.821
longitude =  14.425999999999998

Tsunami status =  TSU
Eartquake status =  nan

Time =  D2


---------------------------------------
        Volcano number =  145
-----------------------------------

Year =  1690
Name =  Guntur
Type =  Complex volcano
Status =  Historical

Location =  Java
Country =  Indonesia
latitude =  -7.13
longitude =  107.83

Tsunami status =  nan
Eartquake status =  nan

Time =  D3


---------------------------------------
        Volcano number =  146
-----------------------------------

Year =  1692
Name =  Serua
Type =  Stratovolcano
Status =  Historical

Location =  Banda Sea
Country =  Pacific Ocean
latitude =  -6.3
longitude =  130.0

Tsunami status =  nan
Eartquake status =  nan

Time =  D2


---------------------------------------
        Volcano number =  147
-----------------------------------

Year =  1693
Name =  Etna
Type =  Stratovolcano
Status =  Historical

Location =  Italy
Country =  Italy
latitude =  37.734
longitude =  15.004

Tsunami status =  nan
Eartquake status =  EQ

Time =  D1


---------------------------------------
        Volcano number =  148
-----------------------------------

Year =  1693
Name =  Hekla
Type =  Stratovolcano
Status =  Historical

Location =  Iceland-S
Country =  Iceland
latitude =  63.98
longitude =  -19.7

Tsunami status =  TSU
Eartquake status =  nan

Time =  D1


---------------------------------------
        Volcano number =  149
-----------------------------------

Year =  1694
Name =  Banda Api
Type =  Caldera
Status =  Historical

Location =  Banda Sea
Country =  Pacific Ocean
latitude =  -4.525
longitude =  129.871

Tsunami status =  nan
Eartquake status =  nan

Time =  D1


---------------------------------------
        Volcano number =  150
-----------------------------------

Year =  1698
Name =  Vesuvius
Type =  Complex volcano
Status =  Historical

Location =  Italy
Country =  Italy
latitude =  40.821
longitude =  14.425999999999998

Tsunami status =  TSU
Eartquake status =  nan

Time =  D2


---------------------------------------
        Volcano number =  151
-----------------------------------

Year =  1698
Name =  Cotopaxi
Type =  Stratovolcano
Status =  Historical

Location =  Ecuador
Country =  Ecuador
latitude =  -0.677
longitude =  -78.436

Tsunami status =  nan
Eartquake status =  nan

Time =  D2


---------------------------------------
        Volcano number =  152
-----------------------------------

Year =  1698
Name =  Cereme
Type =  Stratovolcano
Status =  Historical

Location =  Java
Country =  Indonesia
latitude =  -6.892
longitude =  108.4

Tsunami status =  nan
Eartquake status =  nan

Time =  D2


---------------------------------------
        Volcano number =  153
-----------------------------------

Year =  1706
Name =  Tenerife
Type =  Stratovolcano
Status =  Historical

Location =  Canary Is
Country =  Spain
latitude =  28.271
longitude =  -16.641

Tsunami status =  TSU
Eartquake status =  nan

Time =  D2


---------------------------------------
        Volcano number =  154
-----------------------------------

Year =  1707
Name =  Santorini
Type =  Shield volcano
Status =  Historical

Location =  Greece
Country =  Greece
latitude =  36.404
longitude =  25.396

Tsunami status =  TSU
Eartquake status =  nan

Time =  D2


---------------------------------------
        Volcano number =  155
-----------------------------------

Year =  1707
Name =  Fuji
Type =  Stratovolcano
Status =  Historical

Location =  Honshu-Japan
Country =  Japan
latitude =  35.35
longitude =  138.73

Tsunami status =  nan
Eartquake status =  EQ

Time =  D4


---------------------------------------
        Volcano number =  156
-----------------------------------

Year =  1711
Name =  Awu
Type =  Stratovolcano
Status =  Historical

Location =  Sangihe Is-Indonesia
Country =  Indonesia
latitude =  3.67
longitude =  125.5

Tsunami status =  nan
Eartquake status =  nan

Time =  D1


---------------------------------------
        Volcano number =  157
-----------------------------------

Year =  1712
Name =  Bardarbunga
Type =  Stratovolcano
Status =  Historical

Location =  Iceland-NE
Country =  Iceland
latitude =  64.63
longitude =  -17.53

Tsunami status =  nan
Eartquake status =  nan

Time =  D2


---------------------------------------
        Volcano number =  158
-----------------------------------

Year =  1714
Name =  Vesuvius
Type =  Complex volcano
Status =  Historical

Location =  Italy
Country =  Italy
latitude =  40.821
longitude =  14.425999999999998

Tsunami status =  TSU
Eartquake status =  nan

Time =  D2


---------------------------------------
        Volcano number =  159
-----------------------------------

Year =  1716
Name =  Kelut
Type =  Stratovolcano
Status =  Historical

Location =  Java
Country =  Indonesia
latitude =  -7.93
longitude =  112.308

Tsunami status =  nan
Eartquake status =  nan

Time =  D1


---------------------------------------
        Volcano number =  160
-----------------------------------

Year =  1716
Name =  Taal
Type =  Stratovolcano
Status =  Historical

Location =  Luzon-Philippines
Country =  Philippines
latitude =  14.002
longitude =  120.993

Tsunami status =  TSU
Eartquake status =  EQ

Time =  D1


---------------------------------------
        Volcano number =  161
-----------------------------------

Year =  1716
Name =  Bardarbunga
Type =  Stratovolcano
Status =  Historical

Location =  Iceland-NE
Country =  Iceland
latitude =  64.63
longitude =  -17.53

Tsunami status =  nan
Eartquake status =  nan

Time =  D2


---------------------------------------
        Volcano number =  162
-----------------------------------

Year =  1716
Name =  Kirishima
Type =  Shield volcano
Status =  Historical

Location =  Kyushu-Japan
Country =  Japan
latitude =  31.93
longitude =  130.87

Tsunami status =  nan
Eartquake status =  nan

Time =  D1


---------------------------------------
        Volcano number =  163
-----------------------------------

Year =  1717
Name =  Kirishima
Type =  Shield volcano
Status =  Historical

Location =  Kyushu-Japan
Country =  Japan
latitude =  31.93
longitude =  130.87

Tsunami status =  nan
Eartquake status =  nan

Time =  D1


---------------------------------------
        Volcano number =  164
-----------------------------------

Year =  1717
Name =  Bardarbunga
Type =  Stratovolcano
Status =  Historical

Location =  Iceland-NE
Country =  Iceland
latitude =  64.63
longitude =  -17.53

Tsunami status =  nan
Eartquake status =  nan

Time =  D2


---------------------------------------
        Volcano number =  165
-----------------------------------

Year =  1717
Name =  Fuego
Type =  Stratovolcano
Status =  Historical

Location =  Guatemala
Country =  Guatemala
latitude =  14.473
longitude =  -90.88

Tsunami status =  nan
Eartquake status =  nan

Time =  D1


---------------------------------------
        Volcano number =  166
-----------------------------------

Year =  1718
Name =  Pico
Type =  Stratovolcano
Status =  Historical

Location =  Azores
Country =  Portugal
latitude =  38.47
longitude =  -28.4

Tsunami status =  nan
Eartquake status =  nan

Time =  D4


---------------------------------------
        Volcano number =  167
-----------------------------------

Year =  1721
Name =  Katla
Type =  Subglacial volcano
Status =  Historical

Location =  Iceland-S
Country =  Iceland
latitude =  63.63
longitude =  -19.05

Tsunami status =  nan
Eartquake status =  nan

Time =  D2


---------------------------------------
        Volcano number =  168
-----------------------------------

Year =  1721
Name =  Asama
Type =  Complex volcano
Status =  Historical

Location =  Honshu-Japan
Country =  Japan
latitude =  36.4
longitude =  138.53

Tsunami status =  nan
Eartquake status =  nan

Time =  D1


---------------------------------------
        Volcano number =  169
-----------------------------------

Year =  1726
Name =  Bardarbunga
Type =  Stratovolcano
Status =  Historical

Location =  Iceland-NE
Country =  Iceland
latitude =  64.63
longitude =  -17.53

Tsunami status =  nan
Eartquake status =  nan

Time =  D2


---------------------------------------
        Volcano number =  170
-----------------------------------

Year =  1727
Name =  Oraefajokull
Type =  Stratovolcano
Status =  Historical

Location =  Iceland-SE
Country =  Iceland
latitude =  64.0
longitude =  -16.65

Tsunami status =  nan
Eartquake status =  nan

Time =  D4


---------------------------------------
        Volcano number =  171
-----------------------------------

Year =  1729
Name =  Bardarbunga
Type =  Stratovolcano
Status =  Historical

Location =  Iceland-NE
Country =  Iceland
latitude =  64.63
longitude =  -17.53

Tsunami status =  nan
Eartquake status =  nan

Time =  D2


---------------------------------------
        Volcano number =  172
-----------------------------------

Year =  1729
Name =  Krafla
Type =  Caldera
Status =  Historical

Location =  Iceland-NE
Country =  Iceland
latitude =  65.73
longitude =  -16.78

Tsunami status =  nan
Eartquake status =  nan

Time =  D1


---------------------------------------
        Volcano number =  173
-----------------------------------

Year =  1730
Name =  Lanzarote
Type =  Fissure vent
Status =  Historical

Location =  Canary Is
Country =  Spain
latitude =  29.03
longitude =  -13.63

Tsunami status =  nan
Eartquake status =  nan

Time =  D3


---------------------------------------
        Volcano number =  174
-----------------------------------

Year =  1730
Name =  Tseax River Cone
Type =  Pyroclastic cone
Status =  Radiocarbon

Location =  Canada
Country =  Canada
latitude =  55.12
longitude =  -128.9

Tsunami status =  nan
Eartquake status =  nan

Time =  D4


---------------------------------------
        Volcano number =  175
-----------------------------------

Year =  1730
Name =  Raung
Type =  Stratovolcano
Status =  Historical

Location =  Java
Country =  Indonesia
latitude =  -8.125
longitude =  114.042

Tsunami status =  nan
Eartquake status =  nan

Time =  D1


---------------------------------------
        Volcano number =  176
-----------------------------------

Year =  1737
Name =  Vesuvius
Type =  Complex volcano
Status =  Historical

Location =  Italy
Country =  Italy
latitude =  40.821
longitude =  14.425999999999998

Tsunami status =  nan
Eartquake status =  nan

Time =  D2


---------------------------------------
        Volcano number =  177
-----------------------------------

Year =  1741
Name =  Oshima-Oshima
Type =  Stratovolcano
Status =  Historical

Location =  Hokkaido-Japan
Country =  Japan
latitude =  41.5
longitude =  139.37

Tsunami status =  TSU
Eartquake status =  nan

Time =  D4


---------------------------------------
        Volcano number =  178
-----------------------------------

Year =  1742
Name =  Cotopaxi
Type =  Stratovolcano
Status =  Historical

Location =  Ecuador
Country =  Ecuador
latitude =  -0.677
longitude =  -78.436

Tsunami status =  nan
Eartquake status =  nan

Time =  D2


---------------------------------------
        Volcano number =  179
-----------------------------------

Year =  1742
Name =  Cotopaxi
Type =  Stratovolcano
Status =  Historical

Location =  Ecuador
Country =  Ecuador
latitude =  -0.677
longitude =  -78.436

Tsunami status =  nan
Eartquake status =  nan

Time =  D2


---------------------------------------
        Volcano number =  180
-----------------------------------

Year =  1749
Name =  Taal
Type =  Stratovolcano
Status =  Historical

Location =  Luzon-Philippines
Country =  Philippines
latitude =  14.002
longitude =  120.993

Tsunami status =  TSU
Eartquake status =  EQ

Time =  D1


---------------------------------------
        Volcano number =  181
-----------------------------------

Year =  1753
Name =  Grimsvotn
Type =  Caldera
Status =  Historical

Location =  Iceland-NE
Country =  Iceland
latitude =  64.42
longitude =  -17.33

Tsunami status =  nan
Eartquake status =  nan

Time =  D1


---------------------------------------
        Volcano number =  182
-----------------------------------

Year =  1754
Name =  Taal
Type =  Stratovolcano
Status =  Historical

Location =  Luzon-Philippines
Country =  Philippines
latitude =  14.002
longitude =  120.993

Tsunami status =  TSU
Eartquake status =  EQ

Time =  D1


---------------------------------------
        Volcano number =  183
-----------------------------------

Year =  1755
Name =  Katla
Type =  Subglacial volcano
Status =  Historical

Location =  Iceland-S
Country =  Iceland
latitude =  63.63
longitude =  -19.05

Tsunami status =  nan
Eartquake status =  nan

Time =  D2


---------------------------------------
        Volcano number =  184
-----------------------------------

Year =  1757
Name =  San Jorge
Type =  Fissure vent
Status =  Historical

Location =  Azores
Country =  Portugal
latitude =  38.65
longitude =  -28.08

Tsunami status =  nan
Eartquake status =  EQ

Time =  D2


---------------------------------------
        Volcano number =  185
-----------------------------------

Year =  1760
Name =  Makian
Type =  Stratovolcano
Status =  Historical

Location =  Halmahera-Indonesia
Country =  Indonesia
latitude =  0.32
longitude =  127.4

Tsunami status =  nan
Eartquake status =  nan

Time =  D1


---------------------------------------
        Volcano number =  186
-----------------------------------

Year =  1762
Name =  Kliuchevskoi
Type =  Stratovolcano
Status =  Historical

Location =  Kamchatka
Country =  Russia
latitude =  56.057
longitude =  160.638

Tsunami status =  nan
Eartquake status =  nan

Time =  D1


---------------------------------------
        Volcano number =  187
-----------------------------------

Year =  1766
Name =  Hekla
Type =  Stratovolcano
Status =  Historical

Location =  Iceland-S
Country =  Iceland
latitude =  63.98
longitude =  -19.7

Tsunami status =  nan
Eartquake status =  nan

Time =  D1


---------------------------------------
        Volcano number =  188
-----------------------------------

Year =  1766
Name =  Mayon
Type =  Stratovolcano
Status =  Historical

Location =  Luzon-Philippines
Country =  Philippines
latitude =  13.257
longitude =  123.685

Tsunami status =  nan
Eartquake status =  nan

Time =  D1


---------------------------------------
        Volcano number =  189
-----------------------------------

Year =  1768
Name =  Cotopaxi
Type =  Stratovolcano
Status =  Historical

Location =  Ecuador
Country =  Ecuador
latitude =  -0.677
longitude =  -78.436

Tsunami status =  nan
Eartquake status =  nan

Time =  D2


---------------------------------------
        Volcano number =  190
-----------------------------------

Year =  1772
Name =  Gamalama
Type =  Stratovolcano
Status =  Historical

Location =  Halmahera-Indonesia
Country =  Indonesia
latitude =  0.8
longitude =  127.325

Tsunami status =  TSU
Eartquake status =  nan

Time =  D1


---------------------------------------
        Volcano number =  191
-----------------------------------

Year =  1772
Name =  Papandayan
Type =  Stratovolcano
Status =  Historical

Location =  Java
Country =  Indonesia
latitude =  -7.32
longitude =  107.73

Tsunami status =  nan
Eartquake status =  nan

Time =  D2


---------------------------------------
        Volcano number =  192
-----------------------------------

Year =  1773
Name =  Gamalama
Type =  Stratovolcano
Status =  Historical

Location =  Halmahera-Indonesia
Country =  Indonesia
latitude =  0.8
longitude =  127.325

Tsunami status =  nan
Eartquake status =  nan

Time =  D1


---------------------------------------
        Volcano number =  193
-----------------------------------

Year =  1775
Name =  Lokon-Empung
Type =  Stratovolcano
Status =  Historical

Location =  Sulawesi-Indonesia
Country =  Indonesia
latitude =  1.358
longitude =  124.792

Tsunami status =  nan
Eartquake status =  nan

Time =  D1


---------------------------------------
        Volcano number =  194
-----------------------------------

Year =  1775
Name =  Gamalama
Type =  Stratovolcano
Status =  Historical

Location =  Halmahera-Indonesia
Country =  Indonesia
latitude =  0.8
longitude =  127.325

Tsunami status =  nan
Eartquake status =  nan

Time =  D1


---------------------------------------
        Volcano number =  195
-----------------------------------

Year =  1778
Name =  Raikoke
Type =  Stratovolcano
Status =  Historical

Location =  Kuril Is
Country =  Russia
latitude =  48.292
longitude =  153.25

Tsunami status =  nan
Eartquake status =  nan

Time =  D2


---------------------------------------
        Volcano number =  196
-----------------------------------

Year =  1779
Name =  Vesuvius
Type =  Complex volcano
Status =  Historical

Location =  Italy
Country =  Italy
latitude =  40.821
longitude =  14.425999999999998

Tsunami status =  nan
Eartquake status =  nan

Time =  D2


---------------------------------------
        Volcano number =  197
-----------------------------------

Year =  1779
Name =  Sakura-jima
Type =  Stratovolcano
Status =  Historical

Location =  Kyushu-Japan
Country =  Japan
latitude =  31.58
longitude =  130.67

Tsunami status =  nan
Eartquake status =  nan

Time =  D1


---------------------------------------
        Volcano number =  198
-----------------------------------

Year =  1780
Name =  Sakura-jima
Type =  Stratovolcano
Status =  Historical

Location =  Kyushu-Japan
Country =  Japan
latitude =  31.58
longitude =  130.67

Tsunami status =  nan
Eartquake status =  nan

Time =  D1


---------------------------------------
        Volcano number =  199
-----------------------------------

Year =  1780
Name =  Aoga-shima
Type =  Stratovolcano
Status =  Historical

Location =  Izu Is-Japan
Country =  Japan
latitude =  32.45
longitude =  139.77

Tsunami status =  nan
Eartquake status =  nan

Time =  D4

---------------------------------------
        Volcano number =  200
-----------------------------------

Year =  1780
Name =  Sakura-jima
Type =  Stratovolcano
Status =  Historical

Location =  Kyushu-Japan
Country =  Japan
latitude =  31.58
longitude =  130.67

Tsunami status =  TSU
Eartquake status =  nan

Time =  D1
---------------------------------------
---------------------------------------
        Volcano number =  201
-----------------------------------

Year =  1780
Name =  Sakura-jima
Type =  Stratovolcano
Status =  Historical

Location =  Kyushu-Japan
Country =  Japan
latitude =  31.58
longitude =  130.67

Tsunami status =  TSU
Eartquake status =  nan

Time =  D1


---------------------------------------
        Volcano number =  202
-----------------------------------

Year =  1781
Name =  Sakura-jima
Type =  Stratovolcano
Status =  Historical

Location =  Kyushu-Japan
Country =  Japan
latitude =  31.58
longitude =  130.67

Tsunami status =  TSU
Eartquake status =  nan

Time =  D1


---------------------------------------
        Volcano number =  203
-----------------------------------

Year =  1783
Name =  Asama
Type =  Complex volcano
Status =  Historical

Location =  Honshu-Japan
Country =  Japan
latitude =  36.4
longitude =  138.53

Tsunami status =  nan
Eartquake status =  nan

Time =  D1


---------------------------------------
        Volcano number =  204
-----------------------------------

Year =  1784
Name =  Grimsvotn
Type =  Caldera
Status =  Historical

Location =  Iceland-NE
Country =  Iceland
latitude =  64.42
longitude =  -17.33

Tsunami status =  nan
Eartquake status =  nan

Time =  D1


---------------------------------------
        Volcano number =  205
-----------------------------------

Year =  1784
Name =  Sabancaya
Type =  Stratovolcano
Status =  Historical

Location =  Peru
Country =  Peru
latitude =  -15.78
longitude =  -71.85

Tsunami status =  nan
Eartquake status =  nan

Time =  D1


---------------------------------------
        Volcano number =  206
-----------------------------------

Year =  1784
Name =  Hualalai
Type =  Shield volcano
Status =  Historical

Location =  Hawaiian Is
Country =  United States
latitude =  19.692
longitude =  -155.87

Tsunami status =  nan
Eartquake status =  nan

Time =  D3


---------------------------------------
        Volcano number =  207
-----------------------------------

Year =  1785
Name =  Aoga-shima
Type =  Stratovolcano
Status =  Historical

Location =  Izu Is-Japan
Country =  Japan
latitude =  32.45
longitude =  139.77

Tsunami status =  nan
Eartquake status =  nan

Time =  D4


---------------------------------------
        Volcano number =  208
-----------------------------------

Year =  1786
Name =  Dieng Volc Complex
Type =  Complex volcano
Status =  Historical

Location =  Java
Country =  Indonesia
latitude =  -7.2
longitude =  109.92

Tsunami status =  nan
Eartquake status =  nan

Time =  D1


---------------------------------------
        Volcano number =  209
-----------------------------------

Year =  1789
Name =  Oshima
Type =  Stratovolcano
Status =  Historical

Location =  Izu Is-Japan
Country =  Japan
latitude =  34.73
longitude =  139.38

Tsunami status =  nan
Eartquake status =  nan

Time =  D1


---------------------------------------
        Volcano number =  210
-----------------------------------

Year =  1790
Name =  Kilauea
Type =  Shield volcano
Status =  Historical

Location =  Hawaiian Is
Country =  United States
latitude =  19.425
longitude =  -155.292

Tsunami status =  nan
Eartquake status =  nan

Time =  D1


---------------------------------------
        Volcano number =  211
-----------------------------------

Year =  1792
Name =  Unzen
Type =  Complex volcano
Status =  Historical

Location =  Kyushu-Japan
Country =  Japan
latitude =  32.75
longitude =  130.3

Tsunami status =  TSU
Eartquake status =  EQ

Time =  D1


---------------------------------------
        Volcano number =  212
-----------------------------------

Year =  1794
Name =  Vesuvius
Type =  Complex volcano
Status =  Historical

Location =  Italy
Country =  Italy
latitude =  40.821
longitude =  14.425999999999998

Tsunami status =  nan
Eartquake status =  nan

Time =  D2


---------------------------------------
        Volcano number =  213
-----------------------------------

Year =  1800
Name =  San Jorge
Type =  Fissure vent
Status =  Historical

Location =  Azores
Country =  Portugal
latitude =  38.65
longitude =  -28.08

Tsunami status =  nan
Eartquake status =  nan

Time =  D2


---------------------------------------
        Volcano number =  214
-----------------------------------

Year =  1800
Name =  Guntur
Type =  Complex volcano
Status =  Historical

Location =  Java
Country =  Indonesia
latitude =  -7.13
longitude =  107.83

Tsunami status =  nan
Eartquake status =  nan

Time =  D3


---------------------------------------
        Volcano number =  215
-----------------------------------

Year =  1800
Name =  Mayon
Type =  Stratovolcano
Status =  Historical

Location =  Luzon-Philippines
Country =  Philippines
latitude =  13.257
longitude =  123.685

Tsunami status =  nan
Eartquake status =  nan

Time =  D1


---------------------------------------
        Volcano number =  216
-----------------------------------

Year =  1800
Name =  St. Helens
Type =  Stratovolcano
Status =  Historical

Location =  US-Washington
Country =  United States
latitude =  46.2
longitude =  -122.18

Tsunami status =  nan
Eartquake status =  nan

Time =  D1


---------------------------------------
        Volcano number =  217
-----------------------------------

Year =  1800
Name =  Hualalai
Type =  Shield volcano
Status =  Historical

Location =  Hawaiian Is
Country =  United States
latitude =  19.692
longitude =  -155.87

Tsunami status =  nan
Eartquake status =  nan

Time =  D3


---------------------------------------
        Volcano number =  218
-----------------------------------

Year =  1800
Name =  Kieyo
Type =  Stratovolcano
Status =  Historical

Location =  Africa-E
Country =  Tanzania
latitude =  -9.23
longitude =  33.78

Tsunami status =  nan
Eartquake status =  nan

Time =  D3


---------------------------------------
        Volcano number =  219
-----------------------------------

Year =  1801
Name =  Chokai
Type =  Stratovolcano
Status =  Historical

Location =  Honshu-Japan
Country =  Japan
latitude =  39.08
longitude =  140.03

Tsunami status =  nan
Eartquake status =  nan

Time =  D1


---------------------------------------
        Volcano number =  220
-----------------------------------

Year =  1803
Name =  Asama
Type =  Complex volcano
Status =  Historical

Location =  Honshu-Japan
Country =  Japan
latitude =  36.4
longitude =  138.53

Tsunami status =  nan
Eartquake status =  nan

Time =  D1


---------------------------------------
        Volcano number =  221
-----------------------------------

Year =  1803
Name =  Asama
Type =  Complex volcano
Status =  Historical

Location =  Honshu-Japan
Country =  Japan
latitude =  36.4
longitude =  138.53

Tsunami status =  nan
Eartquake status =  nan

Time =  D1


---------------------------------------
        Volcano number =  222
-----------------------------------

Year =  1804
Name =  Shikotsu
Type =  Caldera
Status =  Historical

Location =  Hokkaido-Japan
Country =  Japan
latitude =  42.7
longitude =  141.33

Tsunami status =  nan
Eartquake status =  nan

Time =  D1


---------------------------------------
        Volcano number =  223
-----------------------------------

Year =  1805
Name =  Vesuvius
Type =  Complex volcano
Status =  Historical

Location =  Italy
Country =  Italy
latitude =  40.821
longitude =  14.425999999999998

Tsunami status =  nan
Eartquake status =  nan

Time =  D2


---------------------------------------
        Volcano number =  224
-----------------------------------

Year =  1812
Name =  Soufriere St. Vincent
Type =  Stratovolcano
Status =  Historical

Location =  W Indies
Country =  St. Vincent & the Grenadines
latitude =  13.33
longitude =  -61.18

Tsunami status =  nan
Eartquake status =  nan

Time =  D1


---------------------------------------
        Volcano number =  225
-----------------------------------

Year =  1812
Name =  Awu
Type =  Stratovolcano
Status =  Historical

Location =  Sangihe Is-Indonesia
Country =  Indonesia
latitude =  3.67
longitude =  125.5

Tsunami status =  nan
Eartquake status =  nan

Time =  D1


---------------------------------------
        Volcano number =  226
-----------------------------------

Year =  1813
Name =  Vesuvius
Type =  Complex volcano
Status =  Historical

Location =  Italy
Country =  Italy
latitude =  40.821
longitude =  14.425999999999998

Tsunami status =  TSU
Eartquake status =  nan

Time =  D2


---------------------------------------
        Volcano number =  227
-----------------------------------

Year =  1814
Name =  Mayon
Type =  Stratovolcano
Status =  Historical

Location =  Luzon-Philippines
Country =  Philippines
latitude =  13.257
longitude =  123.685

Tsunami status =  nan
Eartquake status =  nan

Time =  D1


---------------------------------------
        Volcano number =  228
-----------------------------------

Year =  1815
Name =  Tambora
Type =  Stratovolcano
Status =  Historical

Location =  Lesser Sunda Is
Country =  Indonesia
latitude =  -8.25
longitude =  118.0

Tsunami status =  TSU
Eartquake status =  nan

Time =  D1


---------------------------------------
        Volcano number =  229
-----------------------------------

Year =  1816
Name =  Aso
Type =  Caldera
Status =  Historical

Location =  Kyushu-Japan
Country =  Japan
latitude =  32.88
longitude =  131.1

Tsunami status =  nan
Eartquake status =  nan

Time =  D1


---------------------------------------
        Volcano number =  230
-----------------------------------

Year =  1817
Name =  Ijen
Type =  Stratovolcano
Status =  Historical

Location =  Java
Country =  Indonesia
latitude =  -8.058
longitude =  114.242

Tsunami status =  nan
Eartquake status =  nan

Time =  D1


---------------------------------------
        Volcano number =  231
-----------------------------------

Year =  1817
Name =  Raung
Type =  Stratovolcano
Status =  Historical

Location =  Java
Country =  Indonesia
latitude =  -8.125
longitude =  114.042

Tsunami status =  nan
Eartquake status =  nan

Time =  D1


---------------------------------------
        Volcano number =  232
-----------------------------------

Year =  1818
Name =  Colima
Type =  Stratovolcano
Status =  Historical

Location =  Mexico
Country =  Mexico
latitude =  19.514
longitude =  -103.62

Tsunami status =  nan
Eartquake status =  nan

Time =  D1


---------------------------------------
        Volcano number =  233
-----------------------------------

Year =  1819
Name =  Asuncion
Type =  Stratovolcano
Status =  Historical

Location =  Mariana Is-C Pacific
Country =  United States
latitude =  19.67
longitude =  145.4

Tsunami status =  TSU
Eartquake status =  nan

Time =  D2


---------------------------------------
        Volcano number =  234
-----------------------------------

Year =  1820
Name =  Westdahl
Type =  Stratovolcano
Status =  Historical

Location =  Aleutian Is
Country =  United States
latitude =  54.52
longitude =  -164.65

Tsunami status =  TSU
Eartquake status =  EQ

Time =  D1


---------------------------------------
        Volcano number =  235
-----------------------------------

Year =  1820
Name =  Banda Api
Type =  Caldera
Status =  Historical

Location =  Banda Sea
Country =  Pacific Ocean
latitude =  -4.525
longitude =  129.871

Tsunami status =  nan
Eartquake status =  nan

Time =  D1


---------------------------------------
        Volcano number =  236
-----------------------------------

Year =  1822
Name =  Usu
Type =  Stratovolcano
Status =  Historical

Location =  Hokkaido-Japan
Country =  Japan
latitude =  42.53
longitude =  140.83

Tsunami status =  nan
Eartquake status =  nan

Time =  D1


---------------------------------------
        Volcano number =  237
-----------------------------------

Year =  1822
Name =  Galunggung
Type =  Stratovolcano
Status =  Historical

Location =  Java
Country =  Indonesia
latitude =  -7.25
longitude =  108.05

Tsunami status =  nan
Eartquake status =  nan

Time =  D1


---------------------------------------
        Volcano number =  238
-----------------------------------

Year =  1822
Name =  Merapi
Type =  Stratovolcano
Status =  Historical

Location =  Java
Country =  Indonesia
latitude =  -7.542000000000002
longitude =  110.442

Tsunami status =  nan
Eartquake status =  nan

Time =  D1


---------------------------------------
        Volcano number =  239
-----------------------------------

Year =  1823
Name =  Kilauea
Type =  Shield volcano
Status =  Historical

Location =  Hawaiian Is
Country =  United States
latitude =  19.425
longitude =  -155.292

Tsunami status =  nan
Eartquake status =  nan

Time =  D1


---------------------------------------
        Volcano number =  240
-----------------------------------

Year =  1824
Name =  Shishaldin
Type =  Stratovolcano
Status =  Historical

Location =  Aleutian Is
Country =  United States
latitude =  54.75
longitude =  -163.97

Tsunami status =  nan
Eartquake status =  nan

Time =  D1


---------------------------------------
        Volcano number =  241
-----------------------------------

Year =  1825
Name =  Balbi
Type =  Stratovolcano
Status =  Holocene

Location =  Bougainville-SW Paci
Country =  Papua New Guinea
latitude =  -5.83
longitude =  154.98

Tsunami status =  nan
Eartquake status =  nan

Time =  U


---------------------------------------
        Volcano number =  242
-----------------------------------

Year =  1826
Name =  Dieng Volc Complex
Type =  Complex volcano
Status =  Historical

Location =  Java
Country =  Indonesia
latitude =  -7.2
longitude =  109.92

Tsunami status =  nan
Eartquake status =  nan

Time =  D1


---------------------------------------
        Volcano number =  243
-----------------------------------

Year =  1826
Name =  Kelut
Type =  Stratovolcano
Status =  Historical

Location =  Java
Country =  Indonesia
latitude =  -7.93
longitude =  112.308

Tsunami status =  nan
Eartquake status =  nan

Time =  D1


---------------------------------------
        Volcano number =  244
-----------------------------------

Year =  1826
Name =  Aso
Type =  Caldera
Status =  Historical

Location =  Kyushu-Japan
Country =  Japan
latitude =  32.88
longitude =  131.1

Tsunami status =  nan
Eartquake status =  nan

Time =  D1


---------------------------------------
        Volcano number =  245
-----------------------------------

Year =  1827
Name =  Avachinsky
Type =  Stratovolcano
Status =  Historical

Location =  Kamchatka
Country =  Russia
latitude =  53.255
longitude =  158.83

Tsunami status =  TSU
Eartquake status =  EQ

Time =  D1


---------------------------------------
        Volcano number =  246
-----------------------------------

Year =  1827
Name =  Avachinsky
Type =  Stratovolcano
Status =  Historical

Location =  Kamchatka
Country =  Russia
latitude =  53.255
longitude =  158.83

Tsunami status =  nan
Eartquake status =  nan

Time =  D1


---------------------------------------
        Volcano number =  247
-----------------------------------

Year =  1829
Name =  Guntur
Type =  Complex volcano
Status =  Historical

Location =  Java
Country =  Indonesia
latitude =  -7.13
longitude =  107.83

Tsunami status =  nan
Eartquake status =  nan

Time =  D3


---------------------------------------
        Volcano number =  248
-----------------------------------

Year =  1832
Name =  Etna
Type =  Stratovolcano
Status =  Historical

Location =  Italy
Country =  Italy
latitude =  37.734
longitude =  15.004

Tsunami status =  nan
Eartquake status =  nan

Time =  D1


---------------------------------------
        Volcano number =  249
-----------------------------------

Year =  1832
Name =  Merapi
Type =  Stratovolcano
Status =  Historical

Location =  Java
Country =  Indonesia
latitude =  -7.542000000000002
longitude =  110.442

Tsunami status =  nan
Eartquake status =  nan

Time =  D1


---------------------------------------
        Volcano number =  250
-----------------------------------

Year =  1833
Name =  Kaba
Type =  Stratovolcano
Status =  Historical

Location =  Sumatra
Country =  Indonesia
latitude =  -3.52
longitude =  102.62

Tsunami status =  nan
Eartquake status =  nan

Time =  D2


---------------------------------------
        Volcano number =  251
-----------------------------------

Year =  1835
Name =  Cosiguina
Type =  Stratovolcano
Status =  Historical

Location =  Nicaragua
Country =  Nicaragua
latitude =  12.98
longitude =  -87.57

Tsunami status =  nan
Eartquake status =  nan

Time =  D3


---------------------------------------
        Volcano number =  252
-----------------------------------

Year =  1835
Name =  Banda Api
Type =  Caldera
Status =  Historical

Location =  Banda Sea
Country =  Pacific Ocean
latitude =  -4.525
longitude =  129.871

Tsunami status =  nan
Eartquake status =  nan

Time =  D1


---------------------------------------
        Volcano number =  253
-----------------------------------

Year =  1837
Name =  Peuet Sague
Type =  Complex volcano
Status =  Historical

Location =  Sumatra
Country =  Indonesia
latitude =  4.914
longitude =  96.329

Tsunami status =  TSU
Eartquake status =  EQ

Time =  D1


---------------------------------------
        Volcano number =  254
-----------------------------------

Year =  1838
Name =  Gamalama
Type =  Stratovolcano
Status =  Historical

Location =  Halmahera-Indonesia
Country =  Indonesia
latitude =  0.8
longitude =  127.325

Tsunami status =  nan
Eartquake status =  nan

Time =  D1


---------------------------------------
        Volcano number =  255
-----------------------------------

Year =  1839
Name =  Unnamed
Type =  Submarine volcano
Status =  Uncertain

Location =  Chile-Is
Country =  Chile
latitude =  -33.62
longitude =  -76.83

Tsunami status =  TSU
Eartquake status =  nan

Time =  Unknown


---------------------------------------
        Volcano number =  256
-----------------------------------

Year =  1840
Name =  Gamalama
Type =  Stratovolcano
Status =  Historical

Location =  Halmahera-Indonesia
Country =  Indonesia
latitude =  0.8
longitude =  127.325

Tsunami status =  TSU
Eartquake status =  EQ

Time =  D1


---------------------------------------
        Volcano number =  257
-----------------------------------

Year =  1840
Name =  Kilauea
Type =  Shield volcano
Status =  Historical

Location =  Hawaiian Is
Country =  United States
latitude =  19.425
longitude =  -155.292

Tsunami status =  TSU
Eartquake status =  nan

Time =  D1


---------------------------------------
        Volcano number =  258
-----------------------------------

Year =  1840
Name =  Ararat
Type =  Stratovolcano
Status =  Holocene

Location =  Turkey
Country =  Turkey
latitude =  39.7
longitude =  44.28

Tsunami status =  nan
Eartquake status =  nan

Time =  U


---------------------------------------
        Volcano number =  259
-----------------------------------

Year =  1840
Name =  Savo
Type =  Stratovolcano
Status =  Historical

Location =  Solomon Is-SW Pacifi
Country =  Solomon Is.
latitude =  -9.13
longitude =  159.82

Tsunami status =  nan
Eartquake status =  nan

Time =  D3


---------------------------------------
        Volcano number =  260
-----------------------------------

Year =  1840
Name =  Tinakula
Type =  Stratovolcano
Status =  Historical

Location =  Santa Cruz Is-SW Pac
Country =  Solomon Is.
latitude =  -10.38
longitude =  165.8

Tsunami status =  nan
Eartquake status =  nan

Time =  D1


---------------------------------------
        Volcano number =  261
-----------------------------------

Year =  1841
Name =  Kuchinoerabu-jima
Type =  Stratovolcano
Status =  Historical

Location =  Ryukyu Is
Country =  Japan
latitude =  30.43
longitude =  130.22

Tsunami status =  nan
Eartquake status =  nan

Time =  D1


---------------------------------------
        Volcano number =  262
-----------------------------------

Year =  1843
Name =  Liamuiga
Type =  Stratovolcano
Status =  Radiocarbon

Location =  W Indies
Country =  St. Kitts & Nevis
latitude =  17.37
longitude =  -62.8

Tsunami status =  TSU
Eartquake status =  nan

Time =  D6


---------------------------------------
        Volcano number =  263
-----------------------------------

Year =  1843
Name =  Soufriere Guadeloupe
Type =  Stratovolcano
Status =  Historical

Location =  W Indies
Country =  Guadeloupe
latitude =  16.05
longitude =  -61.67

Tsunami status =  TSU
Eartquake status =  nan

Time =  D1


---------------------------------------
        Volcano number =  264
-----------------------------------

Year =  1843
Name =  Lamongan
Type =  Stratovolcano
Status =  Historical

Location =  Java
Country =  Indonesia
latitude =  -8.0
longitude =  113.342

Tsunami status =  nan
Eartquake status =  nan

Time =  D3


---------------------------------------
        Volcano number =  265
-----------------------------------

Year =  1843
Name =  Etna
Type =  Stratovolcano
Status =  Historical

Location =  Italy
Country =  Italy
latitude =  37.734
longitude =  15.004

Tsunami status =  nan
Eartquake status =  nan

Time =  D1


---------------------------------------
        Volcano number =  266
-----------------------------------

Year =  1845
Name =  Soputan
Type =  Stratovolcano
Status =  Historical

Location =  Sulawesi-Indonesia
Country =  Indonesia
latitude =  1.108
longitude =  124.725

Tsunami status =  TSU
Eartquake status =  EQ

Time =  D1


---------------------------------------
        Volcano number =  267
-----------------------------------

Year =  1845
Name =  Ruiz
Type =  Stratovolcano
Status =  Historical

Location =  Colombia
Country =  Colombia
latitude =  4.895
longitude =  -75.322

Tsunami status =  nan
Eartquake status =  nan

Time =  D1


---------------------------------------
        Volcano number =  268
-----------------------------------

Year =  1845
Name =  Hekla
Type =  Stratovolcano
Status =  Historical

Location =  Iceland-S
Country =  Iceland
latitude =  63.98
longitude =  -19.7

Tsunami status =  nan
Eartquake status =  nan

Time =  D1


---------------------------------------
        Volcano number =  269
-----------------------------------

Year =  1846
Name =  Taupo
Type =  Caldera
Status =  Radiocarbon

Location =  New Zealand
Country =  New Zealand
latitude =  -38.82
longitude =  176.0

Tsunami status =  nan
Eartquake status =  nan

Time =  D6


---------------------------------------
        Volcano number =  270
-----------------------------------

Year =  1846
Name =  Tangkubanparahu
Type =  Stratovolcano
Status =  Historical

Location =  Java
Country =  Indonesia
latitude =  -6.77
longitude =  107.6

Tsunami status =  nan
Eartquake status =  nan

Time =  D1


---------------------------------------
        Volcano number =  271
-----------------------------------

Year =  1846
Name =  E-san
Type =  Stratovolcano
Status =  Historical

Location =  Hokkaido-Japan
Country =  Japan
latitude =  41.8
longitude =  141.17

Tsunami status =  nan
Eartquake status =  nan

Time =  D3


---------------------------------------
        Volcano number =  272
-----------------------------------

Year =  1847
Name =  Fogo
Type =  Stratovolcano
Status =  Historical

Location =  Cape Verde Is
Country =  Cape Verde
latitude =  14.95
longitude =  -24.35

Tsunami status =  nan
Eartquake status =  nan

Time =  D1


---------------------------------------
        Volcano number =  273
-----------------------------------

Year =  1847
Name =  Dieng Volc Complex
Type =  Complex volcano
Status =  Historical

Location =  Java
Country =  Indonesia
latitude =  -7.2
longitude =  109.92

Tsunami status =  nan
Eartquake status =  nan

Time =  D1


---------------------------------------
        Volcano number =  274
-----------------------------------

Year =  1848
Name =  Kelut
Type =  Stratovolcano
Status =  Historical

Location =  Java
Country =  Indonesia
latitude =  -7.93
longitude =  112.308

Tsunami status =  nan
Eartquake status =  nan

Time =  D1


---------------------------------------
        Volcano number =  275
-----------------------------------

Year =  1850
Name =  Rabaul
Type =  Pyroclastic shield
Status =  Historical

Location =  New Britain-SW Pac
Country =  Papua New Guinea
latitude =  -4.271
longitude =  152.203

Tsunami status =  nan
Eartquake status =  nan

Time =  D1


---------------------------------------
        Volcano number =  276
-----------------------------------

Year =  1853
Name =  Niuafo'ou
Type =  Shield volcano
Status =  Historical

Location =  Tonga-SW Pacific
Country =  Tonga
latitude =  -15.6
longitude =  -175.63

Tsunami status =  nan
Eartquake status =  nan

Time =  D1


---------------------------------------
        Volcano number =  277
-----------------------------------

Year =  1853
Name =  Mayon
Type =  Stratovolcano
Status =  Historical

Location =  Luzon-Philippines
Country =  Philippines
latitude =  13.257
longitude =  123.685

Tsunami status =  nan
Eartquake status =  nan

Time =  D1


---------------------------------------
        Volcano number =  278
-----------------------------------

Year =  1853
Name =  Unnamed
Type =  Submarine volcano
Status =  Historical

Location =  Taiwan-E of
Country =  Taiwan
latitude =  24.0
longitude =  121.83

Tsunami status =  TSU
Eartquake status =  nan

Time =  D3


---------------------------------------
        Volcano number =  279
-----------------------------------

Year =  1854
Name =  Shiveluch
Type =  Stratovolcano
Status =  Historical

Location =  Kamchatka
Country =  Russia
latitude =  56.653
longitude =  161.36

Tsunami status =  nan
Eartquake status =  nan

Time =  D1


---------------------------------------
        Volcano number =  280
-----------------------------------

Year =  1854
Name =  Aso
Type =  Caldera
Status =  Historical

Location =  Kyushu-Japan
Country =  Japan
latitude =  32.88
longitude =  131.1

Tsunami status =  nan
Eartquake status =  nan

Time =  D1


---------------------------------------
        Volcano number =  281
-----------------------------------

Year =  1854
Name =  Alaid
Type =  Stratovolcano
Status =  Historical

Location =  Kuril Is
Country =  Russia
latitude =  50.858
longitude =  155.55

Tsunami status =  TSU
Eartquake status =  nan

Time =  D1


---------------------------------------
        Volcano number =  282
-----------------------------------

Year =  1856
Name =  Awu
Type =  Stratovolcano
Status =  Historical

Location =  Sangihe Is-Indonesia
Country =  Indonesia
latitude =  3.67
longitude =  125.5

Tsunami status =  TSU
Eartquake status =  nan

Time =  D1


---------------------------------------
        Volcano number =  283
-----------------------------------

Year =  1856
Name =  Shishaldin
Type =  Stratovolcano
Status =  Historical

Location =  Aleutian Is
Country =  United States
latitude =  54.75
longitude =  -163.97

Tsunami status =  TSU
Eartquake status =  nan

Time =  D1


---------------------------------------
        Volcano number =  284
-----------------------------------

Year =  1856
Name =  Komaga-take
Type =  Stratovolcano
Status =  Historical

Location =  Hokkaido-Japan
Country =  Japan
latitude =  42.07
longitude =  140.68

Tsunami status =  nan
Eartquake status =  nan

Time =  D1


---------------------------------------
        Volcano number =  285
-----------------------------------

Year =  1857
Name =  Umboi
Type =  Complex volcano
Status =  Holocene

Location =  New Guinea-NE of
Country =  Papua New Guinea
latitude =  -5.589
longitude =  147.875

Tsunami status =  TSU
Eartquake status =  EQ

Time =  U


---------------------------------------
        Volcano number =  286
-----------------------------------

Year =  1858
Name =  Mayon
Type =  Stratovolcano
Status =  Historical

Location =  Luzon-Philippines
Country =  Philippines
latitude =  13.257
longitude =  123.685

Tsunami status =  nan
Eartquake status =  nan

Time =  D1


---------------------------------------
        Volcano number =  287
-----------------------------------

Year =  1858
Name =  Tate-yama
Type =  Stratovolcano
Status =  Historical

Location =  Honshu-Japan
Country =  Japan
latitude =  36.57
longitude =  137.6

Tsunami status =  nan
Eartquake status =  nan

Time =  D3


---------------------------------------
        Volcano number =  288
-----------------------------------

Year =  1858
Name =  Tate-yama
Type =  Stratovolcano
Status =  Historical

Location =  Honshu-Japan
Country =  Japan
latitude =  36.57
longitude =  137.6

Tsunami status =  nan
Eartquake status =  nan

Time =  D3


---------------------------------------
        Volcano number =  289
-----------------------------------

Year =  1860
Name =  Semeru
Type =  Stratovolcano
Status =  Historical

Location =  Java
Country =  Indonesia
latitude =  -8.107999999999999
longitude =  112.92

Tsunami status =  nan
Eartquake status =  nan

Time =  D1


---------------------------------------
        Volcano number =  290
-----------------------------------

Year =  1860
Name =  Fuego
Type =  Stratovolcano
Status =  Historical

Location =  Guatemala
Country =  Guatemala
latitude =  14.473
longitude =  -90.88

Tsunami status =  nan
Eartquake status =  nan

Time =  D1


---------------------------------------
        Volcano number =  291
-----------------------------------

Year =  1860
Name =  Grimsvotn
Type =  Caldera
Status =  Historical

Location =  Iceland-NE
Country =  Iceland
latitude =  64.42
longitude =  -17.33

Tsunami status =  nan
Eartquake status =  nan

Time =  D1


---------------------------------------
        Volcano number =  292
-----------------------------------

Year =  1861
Name =  Dubbi
Type =  Stratovolcano
Status =  Historical

Location =  Africa-NE
Country =  Eritrea
latitude =  13.58
longitude =  41.808

Tsunami status =  nan
Eartquake status =  nan

Time =  D3


---------------------------------------
        Volcano number =  293
-----------------------------------

Year =  1861
Name =  Grimsvotn
Type =  Caldera
Status =  Historical

Location =  Iceland-NE
Country =  Iceland
latitude =  64.42
longitude =  -17.33

Tsunami status =  nan
Eartquake status =  nan

Time =  D1


---------------------------------------
        Volcano number =  294
-----------------------------------

Year =  1861
Name =  Makian
Type =  Stratovolcano
Status =  Historical

Location =  Halmahera-Indonesia
Country =  Indonesia
latitude =  0.32
longitude =  127.4

Tsunami status =  nan
Eartquake status =  nan

Time =  D1


---------------------------------------
        Volcano number =  295
-----------------------------------

Year =  1863
Name =  Yasur
Type =  Stratovolcano
Status =  Historical

Location =  Vanuatu-SW Pacific
Country =  Vanuatu
latitude =  -19.52
longitude =  169.425

Tsunami status =  TSU
Eartquake status =  EQ

Time =  D1


---------------------------------------
        Volcano number =  296
-----------------------------------

Year =  1864
Name =  Kelut
Type =  Stratovolcano
Status =  Historical

Location =  Java
Country =  Indonesia
latitude =  -7.93
longitude =  112.308

Tsunami status =  nan
Eartquake status =  nan

Time =  D1


---------------------------------------
        Volcano number =  297
-----------------------------------

Year =  1866
Name =  Santorini
Type =  Shield volcano
Status =  Historical

Location =  Greece
Country =  Greece
latitude =  36.404
longitude =  25.396

Tsunami status =  nan
Eartquake status =  nan

Time =  D2


---------------------------------------
        Volcano number =  298
-----------------------------------

Year =  1866
Name =  Ofu-Olosega
Type =  Shield volcano
Status =  Historical

Location =  Samoa-SW Pacific
Country =  United States
latitude =  -14.175
longitude =  -169.618

Tsunami status =  TSU
Eartquake status =  nan

Time =  D3


---------------------------------------
        Volcano number =  299
-----------------------------------

Year =  1867
Name =  Zao
Type =  Complex volcano
Status =  Historical

Location =  Honshu-Japan
Country =  Japan
latitude =  38.15
longitude =  140.45

Tsunami status =  nan
Eartquake status =  nan

Time =  D2


---------------------------------------
        Volcano number =  300
-----------------------------------

Year =  1868
Name =  Mauna Loa
Type =  Shield volcano
Status =  Historical

Location =  Hawaiian Is
Country =  United States
latitude =  19.475
longitude =  -155.608

Tsunami status =  TSU
Eartquake status =  EQ

Time =  D1


---------------------------------------
        Volcano number =  301
-----------------------------------

Year =  1868
Name =  Etna
Type =  Stratovolcano
Status =  Historical

Location =  Italy
Country =  Italy
latitude =  37.734
longitude =  15.004

Tsunami status =  TSU
Eartquake status =  EQ

Time =  D1


---------------------------------------
        Volcano number =  302
-----------------------------------

Year =  1869
Name =  Lewotobi
Type =  Stratovolcano
Status =  Historical

Location =  Lesser Sunda Is
Country =  Indonesia
latitude =  -8.53
longitude =  122.775

Tsunami status =  nan
Eartquake status =  nan

Time =  D1


---------------------------------------
        Volcano number =  303
-----------------------------------

Year =  1869
Name =  Lamongan
Type =  Stratovolcano
Status =  Historical

Location =  Java
Country =  Indonesia
latitude =  -8.0
longitude =  113.342

Tsunami status =  nan
Eartquake status =  nan

Time =  D3


---------------------------------------
        Volcano number =  304
-----------------------------------

Year =  1870
Name =  Ruang
Type =  Stratovolcano
Status =  Historical

Location =  Sangihe Is-Indonesia
Country =  Indonesia
latitude =  2.28
longitude =  125.425

Tsunami status =  nan
Eartquake status =  nan

Time =  D2


---------------------------------------
        Volcano number =  305
-----------------------------------

Year =  1870
Name =  Aoba
Type =  Shield volcano
Status =  Historical

Location =  Vanuatu-SW Pacific
Country =  Vanuatu
latitude =  -15.4
longitude =  167.83

Tsunami status =  nan
Eartquake status =  nan

Time =  D1


---------------------------------------
        Volcano number =  306
-----------------------------------

Year =  1870
Name =  Iliwerung
Type =  Complex volcano
Status =  Historical

Location =  Lesser Sunda Is
Country =  Indonesia
latitude =  -8.54
longitude =  123.59

Tsunami status =  nan
Eartquake status =  nan

Time =  D1


---------------------------------------
        Volcano number =  307
-----------------------------------

Year =  1871
Name =  Ruang
Type =  Stratovolcano
Status =  Historical

Location =  Sangihe Is-Indonesia
Country =  Indonesia
latitude =  2.28
longitude =  125.425

Tsunami status =  TSU
Eartquake status =  nan

Time =  D2


---------------------------------------
        Volcano number =  308
-----------------------------------

Year =  1871
Name =  Camiguin
Type =  Stratovolcano
Status =  Historical

Location =  Mindanao-Philippines
Country =  Philippines
latitude =  9.203
